Time,F-Scale,Location,County,State,Lat,Lon,Comments
1740,UNK,6 S BAYSIDE,SAN PATRICIO,TX,28,-97.23,CONFIRMED TORNADO TOUCH DOWN NEAR CR136 AND 1177. SEVERAL TREES WERE UP ROOTED. THREE SHEDS COLLAPSED. RV BLOWN ON SIDE. ROOF TOPPLED OVER. REPORTED BY KIII TV 3. (CRP)
1755,UNK,4 ENE TAFT,SAN PATRICIO,TX,28,-97.32,SHERIFF DEPUTIES CONFIRMED A TORNADO TOUCH DOWN INTO COTTON FIELD. (CRP)
1959,UNK,9 N PREMONT,JIM WELLS,TX,27.48,-98.11,NWS STORM SURVEY CONFIRMS AN EF-0 TORNADO OCCURRED JUST NORTH OF THE INTERSECTION OF U.S. 281 AND C.R. 433. SEVERAL TREES OBSERVED DAMAGED ALONG A 1/2 MILE PATH THAT WA (CRP)
2005,UNK,WARREN,BRISTOL,RI,41.72,-71.27,TORNADO TOUCHED DOWN IN WARREN RHODE ISLAND THEN TRAVELED ENE APPROX 4 MILES BEFORE LIFTING IN SWANSEA MASSACHUSETTS AT 410 PM. (BOX)
2223,UNK,4 N WOODVILLE,RAPPAHANNOCK,VA,38.67,-78.17,EF0 TORNADO WITH MAX WINDS 80 MPH. INITIAL TOUCHDOWN ALONG ROCK MILLS RD WEST OF RUDASILL MILL RD AND LIFTED NEAR HUNTERS RD AND GRAND VIEW. PATH LENGTH 1.3 MILES. (LWX)
2240,UNK,LOS FRESNOS,CAMERON,TX,26.07,-97.48,POSSIBLE TORNADO AT 2480 AND 3069. LIFTED ROOF AND A/C UNIT. ALSO DAMAGED TREES. LATE REPORT. (BRO)
2343,UNK,5 ESE HAYMARKET,PRINCE WILLIAM,VA,38.79,-77.54,EF0 TORNADO WITH MAX WINDS OF 75 MPH. AFFECTED THE COMMUNITIES OF COVERSTONE...AMBERTON...SUMMERTREE AND ORCHARD GLEN. PATH LENGTH 1.5 MILES. (LWX)
