Time,F_Scale,Location,County,State,Lat,Lon,Comments
1920,UNK,1 S ELKTON,ST. JOHNS,FL,29.77,-81.43,POSSIBLE TORNADO. TWO BARNS PARTIALLY COLLAPSED. TREES DOWN. FOUR POLES AND POWER LINES DOWN. 6460 CR305 SOUTH OF SR207. (JAX)
2035,UNK,ROSE HILL,DUPLIN,NC,34.83,-78.03,911 CALL CENTER REPORTED TWO STRUCTURAL DAMAGE IN ROSE HILL. (MHX)
2040,UNK,ROSE HILL,DUPLIN,NC,34.83,-78.03,SPOTTER SAW TORNADO ON THE GROUND IN ROSE HILL. (MHX)
0050,UNK,2 NW HAMILTON,MARTIN,NC,35.96,-77.23,MARTIN COUNTY EMERGENCY MANAGEMENT REPORTED A TORNADO JUST NW OF HAMILTON THAT CAUSED DAMAGE TO A HOUSE AND OUTBUILDING...ALONG WITH SIGNIFICANT TREE DAMAGE. TRACK LENG (MHX)
0325,UNK,1 S PLEASANT PLAINS,HERTFORD,NC,36.34,-76.98,A BRIEF EF-0 TORNADO TOUCHED DOWN NEAR SALUDA ROAD NORTH OF AHOSKIE AND TRACKED ABOUT ONE MILE NORTHWEST TO HALL SIDING ROAD. AT 203 HALL SIDING ROAD A HOUSE HAD ITS CA (AKQ)
0515,UNK,1 NE LYNNWOOD,CITY OF VIRGINIA,VA,36.88,-76.08,A BRIEF EF-0 TORNADO ASSOCIATED WITH A SQUALL FROM HURRICANE ARTHUR BRIEFLY TOUCHED DOWN NEAR LYNNWOOD. NUMEROUS TREES WERE SNAPPED AND UPROOTED ALONG LYNNDALE RD AND K (AKQ)
0540,UNK,WARDS CORNER,CITY OF NORFOLK,VA,36.92,-76.27,A BRIEF EF-0 TORNADO ASSOCIATED WITH HURRICANE ARTHUR BRIEFLY TOUCHED DOWN NEAR THE FOREST LAWN CEMETARY. NUMEROUS TREES WERE SNAPPED AND UPROOTED. THIS WAS THE SAME ST (AKQ)
