Time,F-Scale,Location,County,State,Lat,Lon,Comments
2137,UNK,ORMOND BEACH,VOLUSIA,FL,29.28,-81.06,LOW END EF-0 -ZERO- TORNADO WITH ESTIMATED WINDS 65 MPH.WATERSPOUT WENT TO LAND -TORNADO- TO WATER,FROM BEACH EAST OF OSCEOLA DRIVE SOUTHWARD TO ROCKEFELLER DRIVE,ENT (MLB)
2212,UNK,4 NW SHULLSBURG,LAFAYETTE,WI,42.61,-90.29,TORNADO TRACKED FROM 4.2 NW SHULLSBURG TO 2.0 NNE SHULLSBURG. PATH LENGTH WAS ABOUT 4.5 MILES. PATH WIDTH WAS ABOUT 100 YARDS. A BARN WAS DESTROYED NEAR THE BEGINNING O (MKX)
2225,UNK,PORT ORANGE,VOLUSIA,FL,29.12,-81.03,SEVERAL REPORTS OF DAMAGE TO MOBILE HOMES IN THE LAUREL WOOD MOBILE HOME PARK. 6-12 INCH DIAMETER TREES ALSO SNAPPED. (MLB)
2332,UNK,1 NE NEW DIGGINGS,LAFAYETTE,WI,42.55,-90.32,TORNADO TRACKED FROM 1.8 NE NEW DIGGINGS TO 3.6 S SHULLSBURG. PATH LENGTH WAS ABOUT 7.5 MILES. PATH WIDTH WAS ABOUT 75 YARDS. NEAR THE BEGINNING OF THE TRACK...A SMALL (MKX)
0250,UNK,2 SE PRINCETON,BUREAU,IL,41.36,-89.44,SEE PUBLIC INFORMATION STATEMENT FOR ADDITIONAL DETAILS. (DVN)
