Time,F_Scale,Location,County,State,Lat,Lon,Comments
1300,UNK,3 E Bucks,Mobile,AL,31.01,-87.97,Corrects previous tornado report from 3 E Bucks. An unusual anticyclonic tornado began just west of the Middle River associated with the anticyclonic bookend vortex of (MOB)
1510,UNK,3 WNW West Caln Twp,Chester,PA,40.03,-75.91,An EF-1 tornado began in West Caln Township near Baldwin Road where a hardwood tree was uprooted and found hanging on top of downed wires. South of here... between Bald (PHI)
1655,UNK,3 SSW Pemberton,Burlington,NJ,39.93,-74.69,An EF-0 tornado began in Southampton Township near Burrs Mill Road south of Ongs Hat Road where some minor tree damage occurred to a few properties. The tornado continu (PHI)
2055,UNK,3 ENE Carrollton,Isle of Wight,VA,36.97,-76.52,Public reports rain wrapped tornado in Carrolton. (AKQ)
2230,UNK,6 S Arriba,Lincoln,CO,39.2,-103.27,(BOU)
0521,UNK,1 NW I10 And Mcdonald R,Mobile,AL,30.54,-88.25,NWS Storm Survey found an EF-0 associated with a QLCS occurred near Irvington Alabama. The tornado traveled south causing minor tree damage as it crossed I-10. Minor tr (MOB)
